City_ID,City,Country,Date,Latitude,Longitude,Cloudiness (%),Humidity (%),Max Temp (F),Wind Speed (mph)
0,bubaque,GW,2024-05-09,11.2833,-15.8333,100,81,79.934,3.31
1,port-aux-francais,TF,2024-05-09,-49.35,70.2167,100,91,44.33000000000004,16.89
2,antalaha,MG,2024-05-09,-14.9003,50.2788,79,88,73.58000000000004,3.29
3,howard springs,AU,2024-05-09,-12.497,131.047,5,66,92.084,4.7
4,saint-pierre,RE,2024-05-09,-21.3393,55.4781,75,83,73.34600000000006,7.72
5,waitangi,NZ,2024-05-09,-43.9535,-176.5597,79,85,51.09800000000003,1.34
6,adamstown,PN,2024-05-09,-25.066,-130.1015,86,78,72.55399999999995,4.66
7,whitehorse,CA,2024-05-09,60.7161,-135.0538,75,58,50.07200000000004,8.75
8,hamilton,US,2024-05-09,39.1834,-84.5333,40,92,61.016000000000005,4.63
9,albany,US,2024-05-09,42.6001,-73.9662,100,62,57.01999999999996,1.56
10,weno,FM,2024-05-09,7.4515,151.8468,75,74,89.816,5.14
11,saldanha,ZA,2024-05-09,-33.0117,17.9442,26,91,52.12400000000001,5.99
12,margaret river,AU,2024-05-09,-33.95,115.0667,71,75,69.65600000000003,8.5
13,crane,US,2024-05-09,31.3974,-102.3501,12,49,75.03800000000004,11.48
14,olbia,IT,2024-05-09,40.9214,9.4856,0,72,62.924000000000014,1.03
15,sao gabriel da cachoeira,BR,2024-05-09,-0.1303,-67.0892,99,98,75.36199999999997,0.24
16,bredasdorp,ZA,2024-05-09,-34.5322,20.0403,0,82,50.648000000000025,2.32
17,waiuku,NZ,2024-05-09,-37.25,174.75,0,70,60.22400000000002,4.85
18,salinopolis,BR,2024-05-09,-0.6136,-47.3561,92,87,79.77200000000005,4.1
19,bilibino,RU,2024-05-09,68.0546,166.4372,97,87,32.97200000000004,1.08
20,grytviken,GS,2024-05-09,-54.2811,-36.5092,100,89,32.54000000000002,1.53
21,tshabong,BW,2024-05-09,-26.05,22.45,3,28,65.35399999999996,5.23
22,juruti,BR,2024-05-09,-2.1522,-56.0922,100,96,77.52200000000005,1.04
23,west island,CC,2024-05-09,-12.1568,96.8225,100,69,82.65199999999999,8.75
24,houma,US,2024-05-09,29.5958,-90.7195,100,85,81.26600000000002,2.57
25,edinburgh of the seven seas,SH,2024-05-09,-37.0676,-12.3116,100,60,56.04800000000003,4.77
26,blackmans bay,AU,2024-05-09,-43.0167,147.3167,96,91,57.992,1.5
27,isafjordur,IS,2024-05-09,66.0755,-23.124,98,83,35.34800000000003,1.23
28,atafu village,TK,2024-05-09,-8.5421,-172.5159,78,70,85.13599999999997,1.13
29,longyearbyen,SJ,2024-05-09,78.2186,15.6401,75,64,32.108000000000004,9.26
30,carnarvon,AU,2024-05-09,-24.8667,113.6333,38,52,79.57400000000001,0.37
31,geraldton,AU,2024-05-09,-28.7667,114.6,100,34,81.28399999999999,6.17
32,hithadhoo,MV,2024-05-09,-0.6,73.0833,23,76,84.52400000000002,3.73
33,quatre cocos,MU,2024-05-09,-20.2078,57.7625,91,75,76.35199999999998,8.85
34,avarua,CK,2024-05-09,-21.2078,-159.775,75,83,82.72400000000002,5.14
35,yellowknife,CA,2024-05-09,62.456,-114.3525,20,33,57.992,5.14
36,midvagur,FO,2024-05-09,62.0511,-7.1939,100,100,47.498000000000026,4.12
37,indramayu,ID,2024-05-09,-6.3264,108.32,2,71,85.87400000000002,4.68
38,newman,US,2024-05-09,37.3138,-121.0208,0,31,82.90399999999995,2.16
39,la sarre,CA,2024-05-09,48.8002,-79.1996,8,58,43.7,2.97
40,college,US,2024-05-09,64.8569,-147.8028,75,47,54.33800000000005,6.17
41,pandan,PH,2024-05-09,14.0453,124.1694,28,61,88.53800000000004,2.03
42,mukharram al fawqani,SY,2024-05-09,34.8151,37.0861,2,28,65.35399999999996,4.7
43,vastervik,,,,,,,,
44,mana,GF,2024-05-09,5.6592,-53.7767,100,89,79.05199999999998,4.98
45,baskale,TR,2024-05-09,38.0453,44.0172,100,80,41.648000000000025,0.83
46,basoko,CD,2024-05-09,1.2391,23.616,95,94,72.05000000000001,1.34
47,jindabyne,AU,2024-05-09,-36.4167,148.6333,100,94,51.83599999999997,1.34
48,puerto baquerizo moreno,EC,2024-05-09,-0.9,-89.6,61,85,73.90399999999995,4.04
49,talnakh,RU,2024-05-09,69.4865,88.3972,5,78,23.161999999999956,1.3
50,neiafu,TO,2024-05-09,-18.65,-173.9833,20,57,83.35399999999996,2.57
51,jamestown,US,2024-05-09,42.097,-79.2353,100,93,53.45600000000003,3.09
52,fale old settlement,TK,2024-05-09,-9.3852,-171.2468,100,71,84.95600000000003,1.58
53,luza,RU,2024-05-09,60.6308,47.2512,100,92,27.841999999999995,4.27
54,saint-philippe,RE,2024-05-09,-21.3585,55.7679,67,78,73.25600000000003,5.98
55,kannur,IN,2024-05-09,11.8675,75.3576,70,72,84.77599999999998,2.3
56,port elizabeth,ZA,2024-05-09,-33.918,25.5701,75,96,59.57599999999999,3.09
57,tiksi,RU,2024-05-09,71.6872,128.8694,100,90,28.66999999999996,2.7
58,cooper's town,BS,2024-05-09,26.8667,-77.5167,0,74,77.93599999999998,5.32
59,dudinka,RU,2024-05-09,69.4058,86.1778,40,93,13.946000000000048,2.68
60,jose maria morelos,MX,2024-05-09,23.3952,-103.8984,1,23,66.07400000000001,4.13
61,pacific grove,US,2024-05-09,36.6177,-121.9166,0,78,65.65999999999998,4.12
62,caninde,BR,2024-05-09,-4.3589,-39.3117,58,89,72.78800000000004,1.09
63,nurota,UZ,2024-05-09,40.5614,65.6886,100,85,61.772000000000034,6.28
64,ribeira grande,PT,2024-05-09,38.5167,-28.7,25,92,64.04000000000002,3.58
65,ruidoso,US,2024-05-09,33.3317,-105.673,0,17,63.23000000000005,4.12
66,ushuaia,AR,2024-05-09,-54.8,-68.3,0,69,35.52799999999996,6.69
67,hawaiian paradise park,US,2024-05-09,19.5933,-154.9731,75,83,78.584,4.63
68,lihue,US,2024-05-09,21.9789,-159.3672,0,74,78.65600000000003,4.12
69,remontnoye,RU,2024-05-09,46.5614,43.6501,97,37,46.92200000000004,3.96
70,kailua-kona,US,2024-05-09,19.6406,-155.9956,100,80,81.55399999999995,6.17
71,sinabang,ID,2024-05-09,2.4803,96.3801,100,79,84.57799999999997,1.93
72,dwarka,IN,2024-05-09,22.2394,68.9678,0,78,83.858,5.14
73,aasiaat,GL,2024-05-09,68.7098,-52.8699,80,92,10.274000000000012,1.31
74,prosser,US,2024-05-09,46.2068,-119.7689,1,47,79.89800000000002,2.64
75,bardai,NG,2024-05-09,11.65,7.2333,100,51,83.15600000000003,3.58
76,iskateley,RU,2024-05-09,67.6803,53.1512,100,95,29.282000000000018,11.62
77,invercargill,NZ,2024-05-09,-46.4,168.35,100,79,49.280000000000044,4.47
78,taiohae,,,,,,,,
79,papatowai,NZ,2024-05-09,-46.5619,169.4708,100,83,46.77799999999996,5.46
80,klaksvik,FO,2024-05-09,62.2266,-6.589,100,98,47.588000000000044,7.07
81,st. john's,CA,2024-05-09,47.5649,-52.7093,100,92,38.55199999999998,2.57
82,wailua homesteads,US,2024-05-09,22.0669,-159.378,0,80,78.06199999999995,4.12
83,anadyr,RU,2024-05-09,64.75,177.4833,75,73,23.77400000000001,2
84,xining,CN,2024-05-09,36.6167,101.7667,100,76,49.33399999999999,5.81
85,arraial do cabo,BR,2024-05-09,-22.9661,-42.0278,8,89,75.16400000000004,2.04
86,isangel,VU,2024-05-09,-19.55,169.2667,75,73,75.57799999999997,3.09
87,hendersonville,US,2024-05-09,36.3048,-86.62,0,82,75.84800000000003,1.91
88,ulladulla,AU,2024-05-09,-35.35,150.4667,100,76,64.75999999999999,1.85
89,viedma,AR,2024-05-09,-40.8135,-62.9967,14,39,47.65999999999998,3.48
90,mont-tremblant,CA,2024-05-09,46.1949,-74.6264,68,87,42.65600000000003,0.51
91,mili,MH,2024-05-09,6.0815,171.735,98,82,83.73200000000003,5.67
92,lebu,CL,2024-05-09,-37.6167,-73.65,0,85,47.04800000000002,1.01
93,lake stevens,US,2024-05-09,48.0151,-122.0637,0,40,71.36600000000001,5.66
94,el matama,SD,2024-05-09,16.7095,33.3565,54,11,82.00399999999996,4.09
95,puerto natales,CL,2024-05-09,-51.7236,-72.4875,53,95,28.688000000000045,1.49
96,chonchi,CL,2024-05-09,-42.6128,-73.8092,28,96,44.07799999999996,0.88
97,thunder bay,CA,2024-05-09,48.4001,-89.3168,0,65,44.851999999999975,1.54
98,ancud,CL,2024-05-09,-41.8697,-73.8203,84,79,48.434,3.01
99,sabang,ID,2024-05-09,5.8933,95.3214,31,71,84.77599999999998,0.5
100,bafoulabe,ML,2024-05-09,13.8065,-10.8321,100,36,94.892,3.1
101,sitka,US,2024-05-09,57.0531,-135.33,100,81,50.161999999999956,8.75
102,petropavlovsk-kamchatsky,RU,2024-05-09,53.0452,158.6483,75,66,47.26400000000003,10
103,seven pagodas,IN,2024-05-09,12.6264,80.1722,61,66,89.924,4.21
104,ust-nera,RU,2024-05-09,64.5667,143.2,100,71,41.719999999999956,1.71
105,vingt cinq,,,,,,,,
106,metlili chaamba,DZ,2024-05-09,32.2667,3.6333,0,30,65.60600000000002,1.03
107,iqaluit,CA,2024-05-09,63.7506,-68.5145,100,80,28.4,4.12
108,puerto ayora,EC,2024-05-09,-0.7393,-90.3518,60,98,73.81400000000004,2.28
109,qaqortoq,GL,2024-05-09,60.7167,-46.0333,100,75,34.25,0.73
110,naze,JP,2024-05-09,28.3667,129.4833,100,52,72.78800000000004,4.36
111,palikir - national government center,FM,2024-05-09,6.9248,158.1611,100,74,87.11600000000001,4.12
112,chilca,PE,2024-05-09,-12.5211,-76.7372,35,90,64.99399999999997,2.83
113,ryl'sk,RU,2024-05-09,51.5655,34.6822,82,63,36.30199999999998,3
114,kingston,JM,2024-05-09,17.997,-76.7936,20,74,85.424,5.66
115,taoudenni,ML,2024-05-09,22.6783,-3.9836,49,6,90.66199999999995,4.72
116,hadibu,YE,2024-05-09,12.65,54.0333,80,72,83.22799999999997,0.32
117,islamkot,PK,2024-05-09,24.6997,70.177,0,51,87.44000000000003,5.45
118,bargara,,,,,,,,
119,port augusta,AU,2024-05-09,-32.5,137.7667,0,33,70.75399999999996,4.97
120,acarau,BR,2024-05-09,-2.8856,-40.12,100,88,78.98000000000005,3.59
121,ak-suu,KG,2024-05-09,42.4995,78.527,1,27,71.38399999999999,0.54
122,enewetak,MH,2024-05-09,11.3474,162.3373,100,75,81.93200000000002,8.52
123,cao bang,VN,2024-05-09,22.6667,106.25,91,70,82.976,3.26
124,klyuchi,RU,2024-05-09,52.2667,79.1667,100,48,67.92799999999997,4.94
125,ilulissat,GL,2024-05-09,69.2167,-51.1,71,79,19.688000000000045,0
126,thompson,CA,2024-05-09,55.7435,-97.8558,75,93,50.432000000000016,2.06
127,ola,RU,2024-05-09,59.5833,151.2833,40,79,39.41600000000001,3.22
128,la serena,CL,2024-05-09,-29.9078,-71.2542,100,87,55.184,3.6
129,hantsavichy,BY,2024-05-09,52.758,26.43,31,87,43.141999999999996,2.98
130,ishtixon shahri,,,,,,,,
131,tyuratam,KZ,2024-05-09,45.6507,63.3156,100,36,59.684,7.38
132,kangiwa,NG,2024-05-09,12.5521,3.8187,81,47,89.56400000000004,4.21
133,saipan,MP,2024-05-09,15.1355,145.701,40,62,92.37200000000004,6.17
134,verkhnevilyuysk,RU,2024-05-09,63.4453,120.3167,100,45,32.70199999999998,3.71
135,stanley,GB,2024-05-09,54.868,-1.6985,0,93,52.05199999999998,1.54
136,abraham's bay,,,,,,,,
137,vorgashor,RU,2024-05-09,67.5833,63.95,100,74,28.075999999999986,8.62
138,constantia,RO,2024-05-09,44.1833,28.65,20,82,50.97200000000004,5.78
139,aegina,GR,2024-05-09,37.7467,23.4275,100,76,67.45999999999998,7.16
140,nuuk,GL,2024-05-09,64.1835,-51.7216,40,93,32.88200000000002,4.63
141,kalashnikovo,RU,2024-05-09,57.2824,35.2262,100,70,31.658000000000005,2.48
142,polyarnyy,RU,2024-05-09,69.1989,33.4478,100,85,30.55999999999998,6.07
143,aykhal,RU,2024-05-09,66,111.5,100,82,19.52599999999999,6.23
144,brisas de zicatela,MX,2024-05-09,15.8369,-97.0419,0,89,79.592,1.54
145,port alfred,ZA,2024-05-09,-33.5906,26.891,23,98,58.44199999999999,0.81
146,krasnyy yar,RU,2024-05-09,46.5331,48.3456,100,32,51.998000000000026,4.57
147,qarauyl,KZ,2024-05-09,48.9451,79.255,95,21,76.74800000000002,2.39
148,'ohonua,,,,,,,,
149,fort liberte,HT,2024-05-09,19.6678,-71.8397,100,83,78.51199999999996,1.88
150,pontes e lacerda,BR,2024-05-09,-15.2261,-59.3353,0,67,72.71600000000001,0.77
151,saint-pierre-d'oleron,,,,,,,,
152,port glaud,,,,,,,,
153,mao,ES,2024-05-09,39.8885,4.2658,0,94,56.227999999999966,3.09
154,bairnsdale,AU,2024-05-09,-37.8333,147.6167,60,73,66.326,0.89
155,sao francisco,BR,2024-05-09,-15.9486,-44.8644,0,66,67.69399999999997,0.68
156,port mathurin,MU,2024-05-09,-19.6833,63.4167,100,72,77.99000000000002,11.2
157,sorsk,RU,2024-05-09,54.0033,90.2467,100,39,54.98599999999997,4.09
158,marquette,US,2024-05-09,46.5333,-87.6335,0,77,41.035999999999966,1.5
159,alpu,TR,2024-05-09,39.769,30.9606,93,93,50.54000000000002,1.75
160,porto novo,BJ,2024-05-09,6.4965,2.6036,100,80,84.29000000000002,3.4
161,guanica,PR,2024-05-09,17.9716,-66.908,1,69,81.24800000000002,3.3
162,santa ana,US,2024-05-09,33.7456,-117.8678,75,76,69.90800000000002,4.12
163,dalsingh sarai,IN,2024-05-09,25.6667,85.8333,6,49,87.40399999999995,6.03
164,olonkinbyen,SJ,2024-05-09,70.9221,-8.7187,25,76,28.364000000000033,8.47
165,mayen abun,,,,,,,,
166,dalnegorsk,RU,2024-05-09,44.5604,135.5701,100,34,59.86400000000003,2.68
167,illapel,CL,2024-05-09,-31.6308,-71.1653,3,83,49.567999999999984,0.9
168,vera,AR,2024-05-09,-29.4593,-60.2126,100,78,51.530000000000044,2.17
169,bethel,US,2024-05-09,41.3712,-73.414,99,75,60.29600000000005,1.34
170,dauphin,CA,2024-05-09,51.1494,-100.0502,75,48,64.81400000000004,0
171,happy valley-goose bay,CA,2024-05-09,53.3168,-60.3315,75,81,37.975999999999985,1.54
172,al matlin,TN,2024-05-09,37.2452,10.05,24,85,58.85600000000003,7.78
173,taksimo,RU,2024-05-09,56.3444,114.8794,100,53,51.58399999999999,2.9
174,darlington,GB,2024-05-09,54.5243,-1.5504,100,80,54.391999999999996,1.94
175,port lincoln,AU,2024-05-09,-34.7333,135.8667,0,65,62.11400000000003,3.55
176,kayenta,US,2024-05-09,36.7278,-110.2546,32,24,53.690000000000026,3.65
177,akureyri,IS,2024-05-09,65.6835,-18.0878,0,70,37.59800000000003,2.06
178,san patricio,US,2024-05-09,28.017,-97.5169,0,82,83.10199999999998,4.31
179,yaren,NR,2024-05-09,-0.5472,166.916,89,68,84.308,1.36
180,staryye ozinki,RU,2024-05-09,51.1786,49.6769,4,60,37.88599999999997,5.08
181,sittwe,MM,2024-05-09,20.15,92.9,41,53,87.29600000000005,1.35
182,pyapon,MM,2024-05-09,16.2833,95.6833,0,40,95.70199999999997,2.01
183,altay,CN,2024-05-09,47.8667,88.1167,22,22,69.65600000000003,1.93
184,laojunmiao,CN,2024-05-09,39.8333,97.7333,100,30,56.498000000000026,4.65
185,kupiskis,LT,2024-05-09,55.8333,24.9667,100,90,44.95999999999998,4.87
186,remire-montjoly,GF,2024-05-09,4.9167,-52.2667,75,100,77.30600000000004,1.03
187,ribeira brava,PT,2024-05-09,32.65,-17.0667,20,80,68.9,0.62
188,aldinga beach,AU,2024-05-09,-35.2793,138.4604,0,48,71.726,2.7
189,pecanha,BR,2024-05-09,-18.5486,-42.5569,0,92,65.30000000000001,0.31
190,codrington,AU,2024-05-09,-38.2667,141.9667,76,75,62.690000000000026,3.61
191,kapuskasing,CA,2024-05-09,49.4169,-82.4331,20,49,50.359999999999985,2.57
192,malango,ID,2024-05-09,-2.9627,119.9001,10,58,82.75999999999999,1.93
193,lompoc,US,2024-05-09,34.6391,-120.4579,0,77,61.483999999999995,2.57
194,chengde,CN,2024-05-09,40.9725,117.9361,100,35,78.51199999999996,3.01
195,qui nhon,VN,2024-05-09,13.7667,109.2333,100,66,86.19800000000004,3.3
196,aitape,PG,2024-05-09,-3.1374,142.3475,99,82,82.958,2
197,chabahar,IR,2024-05-09,25.2919,60.643,0,71,84.48800000000006,7.02
198,luderitz,NA,2024-05-09,-26.6481,15.1594,0,85,54.98599999999997,5.67
199,san luis,AR,2024-05-09,-33.295,-66.3356,35,49,48.29000000000002,0.93
200,takamaka,,,,,,,,
201,fortuna,US,2024-05-09,40.5982,-124.1573,20,52,69.18800000000005,3.09
202,kavieng,PG,2024-05-09,-2.5744,150.7967,82,75,84.03800000000004,2.4
203,yulinshi,CN,2024-05-09,38.2906,109.7494,100,21,79.95199999999997,7.66
204,east london,ZA,2024-05-09,-33.0153,27.9116,35,84,67.47799999999997,2.09
205,alaghsas,NE,2024-05-09,17.0187,8.0168,78,14,89.29399999999998,1.49
206,slave lake,CA,2024-05-09,55.2834,-114.769,0,41,61.05199999999998,4.63
207,dambatta,NG,2024-05-09,12.433,8.5154,100,43,88.17799999999997,4.61
208,barakani,KM,2024-05-09,-12.1356,44.4317,0,70,80.54600000000005,7.37
209,hermanus,ZA,2024-05-09,-34.4187,19.2345,0,78,55.616000000000014,3.98
210,byron bay,AU,2024-05-09,-28.65,153.6167,66,55,69.98000000000005,3.87
211,sur,OM,2024-05-09,22.5667,59.5289,0,45,91.14800000000002,2.55
212,sucre,BO,2024-05-09,-19.0333,-65.2627,43,82,58.11799999999998,2.04
213,bereeda,SO,2024-05-09,11.8704,51.0579,71,76,84.74000000000002,3.11
214,dharmabad,IN,2024-05-09,18.9,77.85,21,39,91.00399999999996,2.3
215,boa vista,BR,2024-05-09,2.8197,-60.6733,75,94,77.25199999999998,1.54
216,pindushi,RU,2024-05-09,62.9152,34.58,9,77,29.875999999999987,4.19
217,puerto santa,PE,2024-05-09,-8.9906,-78.6456,100,89,66.72200000000004,4.32
218,san antonio oeste,AR,2024-05-09,-40.7319,-64.9477,35,41,53.690000000000026,4.47
219,vyritsa,RU,2024-05-09,59.4078,30.3481,98,80,40.78399999999999,2.56
220,ahau,,,,,,,,
221,tazacorte,ES,2024-05-09,28.629,-17.9293,0,75,67.44200000000001,6.69
222,new norfolk,AU,2024-05-09,-42.7826,147.0587,99,81,59.18000000000004,1.31
223,leua,SK,2024-05-09,48.2156,18.6071,83,63,54.76999999999996,2.41
224,kalemie,CD,2024-05-09,-5.9475,29.1947,42,82,72.62599999999999,1.97
225,sabha,LY,2024-05-09,27.0377,14.4283,6,34,66.23599999999996,7.04
226,erenhot,CN,2024-05-09,43.6475,111.9767,100,41,52.98800000000004,15.57
227,chibougamau,CA,2024-05-09,49.9168,-74.3659,0,81,39.092,1.03
228,tindouf,DZ,2024-05-09,27.6711,-8.1474,40,14,83.11999999999996,2.57
229,puerto armuelles,PA,2024-05-09,8.2833,-82.8667,100,77,80.85199999999998,1.79
230,the pas,CA,2024-05-09,53.8251,-101.2541,100,58,52.08800000000005,2.57
231,hushitai,CN,2024-05-09,41.9322,123.5114,100,28,71.78000000000004,10.34
232,broken hill,AU,2024-05-09,-31.95,141.4333,29,53,65.67799999999997,5.75
233,al jawf,SA,2024-05-09,29.5,38.75,0,19,72.35600000000002,5.87
234,bandarbeyla,SO,2024-05-09,9.4942,50.8122,88,75,83.67799999999997,2.91
235,al bardiyah,LY,2024-05-09,31.7561,25.0865,1,70,64.11199999999997,6.63
236,inarajan village,GU,2024-05-09,13.2736,144.7484,36,85,90.842,6.98
237,cam pha mines,VN,2024-05-09,21.0167,107.3,95,74,81.40999999999998,3.03
238,nikolayevsk-on-amure,RU,2024-05-09,53.1406,140.73,94,59,45.48200000000001,4.02
239,youghal,IE,2024-05-09,51.95,-7.8506,100,99,53.07799999999996,1.87
240,paredon,MX,2024-05-09,16.0333,-93.8667,100,69,84.16400000000004,1.54
241,touros,BR,2024-05-09,-5.1989,-35.4608,72,93,77.14399999999998,3.86
242,georgetown,MY,2024-05-09,5.4112,100.3354,20,74,87.99800000000002,2.57
243,gadzhiyevo,RU,2024-05-09,69.2551,33.3362,100,85,30.956000000000028,5.96
244,tocopilla,CL,2024-05-09,-22.092,-70.1979,71,73,65.31799999999998,1.92
245,zhalantun,CN,2024-05-09,48,122.7167,100,55,53.83399999999999,8.77
246,nagqu,CN,2024-05-09,31.5,92,100,36,37.63399999999999,2.88
247,nashville,US,2024-05-09,36.1659,-86.7844,0,55,75.93800000000005,3.09
248,korop,UA,2024-05-09,51.5664,32.9586,98,57,41.35999999999998,2.49
249,katsuren-haebaru,JP,2024-05-09,26.3369,127.8719,40,54,78.368,5.14
250,puerto san carlos,,,,,,,,
251,stephenville,US,2024-05-09,32.2207,-98.2023,40,85,67.208,1.54
252,ambodifotatra,MG,2024-05-09,-16.9833,49.85,29,74,79.26799999999999,7.09
253,north bend,US,2024-05-09,43.4065,-124.2243,0,56,69.98000000000005,4.12
254,cargados carajos,,,,,,,,
255,durant,US,2024-05-09,33.994,-96.3708,75,90,63.23000000000005,0
256,badger,US,2024-05-09,64.8,-147.5333,75,44,54.248000000000026,6.17
257,thenzawl,IN,2024-05-09,23.3167,92.75,100,57,83.46199999999996,0.48
258,lindsdal,SE,2024-05-09,56.7333,16.3,75,94,53.690000000000026,2.06
259,luba,GQ,2024-05-09,3.4568,8.5547,100,83,78.96199999999996,3.12
260,reinfeld,DE,2024-05-09,53.8333,10.4833,75,93,52.12400000000001,1.03
261,port blair,IN,2024-05-09,11.6667,92.75,40,79,86.30600000000004,1.03
262,cidreira,BR,2024-05-09,-30.1811,-50.2056,100,64,62.311999999999955,2.68
263,afaahiti,PF,2024-05-09,-17.75,-149.2833,3,77,82.54399999999998,3.54
264,vadso,NO,2024-05-09,70.0744,29.7487,75,74,30.632000000000016,4.63
265,udachny,RU,2024-05-09,66.4167,112.4,100,71,21.77599999999999,5.24
266,sagarejo,GE,2024-05-09,41.734,45.3315,97,86,56.101999999999975,1.3
267,tondano,ID,2024-05-09,1.3038,124.9112,70,62,84.55999999999997,0.96
268,waounde,SN,2024-05-09,15.2637,-12.8682,87,55,86.84600000000006,11.72
269,tura,IN,2024-05-09,25.5198,90.2201,78,47,85.40600000000003,1.2
270,ta`u,AS,2024-05-09,-14.2336,-169.5144,100,80,82.34600000000006,3.54
271,okhotsk,RU,2024-05-09,59.3833,143.3,100,96,32.95399999999995,9.37
272,tobruk,LY,2024-05-09,32.0836,23.9764,0,74,62.81600000000001,8.23
273,queenstown,ZA,2024-05-09,-31.8976,26.8753,31,43,62.74399999999997,2.9
274,paramonga,PE,2024-05-09,-10.6667,-77.8333,52,89,66.21799999999999,3.64
275,bor,RU,2024-05-09,56.3567,44.0669,85,74,34.71799999999998,6.18
276,wuyang,CN,2024-05-09,31.9925,116.2472,3,30,82.52599999999998,3.66
277,brooks,CA,2024-05-09,50.5834,-111.8851,14,28,68.25199999999998,1.54
278,haiku-pauwela,US,2024-05-09,20.9219,-156.3051,100,93,73.52599999999998,6.17
279,gogapur,IN,2024-05-09,23.55,75.5167,1,40,89.33000000000004,6.26
280,mitu,CO,2024-05-09,1.1983,-70.1733,100,99,74.24600000000005,0.68
281,tralee,IE,2024-05-09,52.2704,-9.7026,97,88,49.477999999999966,2.31
282,al mijlad,SD,2024-05-09,11.0333,27.7333,100,9,78.08000000000004,5.47
283,ambon,ID,2024-05-09,-3.6954,128.1814,40,70,88.21400000000003,4.12
284,acajutla,SV,2024-05-09,13.5928,-89.8275,88,73,84.50600000000003,2.4
285,vilyuchinsk,RU,2024-05-09,52.9306,158.4028,18,65,48.74000000000002,4.42
286,taulaga,AS,2024-05-09,-11.0553,-171.0883,99,73,85.06400000000004,3.65
287,aras-asan,PH,2024-05-09,8.8908,126.3033,25,67,85.226,3.07
288,bellary,IN,2024-05-09,15.15,76.9333,10,48,88.64600000000004,2.92
289,carauari,BR,2024-05-09,-4.8828,-66.8958,92,91,76.45999999999998,0.65
290,shangri-la,,,,,,,,
291,severnoye,RU,2024-05-09,56.3491,78.3619,70,40,63.248000000000026,7.15
292,kone,NC,2024-05-09,-21.0595,164.8658,61,42,80.34800000000003,4.25
293,wanning,CN,2024-05-09,18.8003,110.3967,13,65,86.50399999999996,3.34
294,linhares,BR,2024-05-09,-19.3911,-40.0722,0,95,73.23800000000006,0.72
295,minas de marcona,PE,2024-05-09,-15.2119,-75.1103,70,87,55.77799999999996,6.1
296,punta arenas,CL,2024-05-09,-53.15,-70.9167,20,93,30.577999999999964,3.09
297,callao,PE,2024-05-09,-12.0667,-77.15,75,82,68.99000000000002,4.12
298,mirny,RU,2024-05-09,62.5353,113.9611,100,59,31.49600000000005,3.58
299,belle fourche,US,2024-05-09,44.6714,-103.8522,100,78,55.36400000000003,2.37
300,burang,CN,2024-05-09,30.25,81.1667,2,34,44.20399999999995,1.03
301,da nang,VN,2024-05-09,16.0678,108.2208,0,62,88.05199999999998,2.06
302,camana,PE,2024-05-09,-16.6228,-72.7111,100,86,65.30000000000001,3.08
303,kapoeta,SS,2024-05-09,4.7717,33.5903,99,58,80.6,7.87
304,puerto cabezas,NI,2024-05-09,14.0351,-83.3888,93,76,82.41799999999998,4.01
305,devinuwara,,,,,,,,
306,ouadda,CF,2024-05-09,8.0777,22.4007,79,76,68.558,1.3
307,pizarro,CO,2024-05-09,4.9533,-77.366,100,88,78.08000000000004,1.7
308,vila franca do campo,PT,2024-05-09,37.7167,-25.4333,14,88,59.684,1.67
309,utrik,MH,2024-05-09,11.2278,169.8474,79,82,81.392,8.88
310,uturoa,PF,2024-05-09,-16.7333,-151.4333,18,69,82.70600000000003,3.94
311,yemetsk,RU,2024-05-09,63.4721,41.7941,100,91,28.4,4.28
312,port saint john's,ZA,2024-05-09,-31.6229,29.5448,5,55,69.61999999999996,2.23
313,segezha,RU,2024-05-09,63.7415,34.3222,9,82,26.761999999999954,4.47
314,rongelap,MH,2024-05-09,11.1635,166.8941,51,80,81.5,8.49
315,plastun,RU,2024-05-09,44.7561,136.2939,100,29,61.46600000000001,2.43
316,kodiak,US,2024-05-09,57.79,-152.4072,40,75,40.78399999999999,3.6
317,champerico,GT,2024-05-09,14.3,-91.9167,75,69,85.334,2.97
318,rumuruti,KE,2024-05-09,0.267,36.5389,85,90,58.17200000000004,2.54
319,charters towers,AU,2024-05-09,-20.1,146.2667,100,59,76.24399999999997,6.54
320,siocon,PH,2024-05-09,7.7061,122.1353,31,65,88.25,2.72
321,diego de almagro,CL,2024-05-09,-26.3667,-70.05,100,65,56.04800000000003,1.55
322,ulsteinvik,NO,2024-05-09,62.3432,5.8487,88,83,43.016000000000005,1.79
323,kapenguria,KE,2024-05-09,1.2511,35.0895,98,91,57.55999999999998,1.04
324,turgen,KZ,2024-05-09,43.4006,77.5933,0,51,62.99600000000005,1.78
325,malabar,AU,2024-05-09,-33.9667,151.25,75,76,71.97799999999997,5.66
326,taos,US,2024-05-09,36.4072,-105.5731,100,78,45.71600000000001,7.2
327,bodaybo,RU,2024-05-09,57.8506,114.1933,100,80,42.02599999999999,2.22
328,gaozhou,CN,2024-05-09,21.9392,110.8461,88,76,81.95,5.07
329,la cruz,MX,2024-05-09,23.9167,-106.9,2,51,75.46999999999997,3.14
330,chokwe,MZ,2024-05-09,-24.5333,32.9833,0,80,61.411999999999956,2.33
331,carolina,PR,2024-05-09,18.3808,-65.9574,40,86,82.63399999999999,2.06
332,selfoss,IS,2024-05-09,63.9331,-20.9971,100,57,44.311999999999955,3.72
333,pades,RO,2024-05-09,45.0167,22.85,100,91,50.50399999999995,2.12
334,las tablas,PA,2024-05-09,7.7667,-80.2833,100,99,81.44600000000005,1.72
335,mizdah,LY,2024-05-09,31.4451,12.9801,0,79,56.89399999999998,6.58
336,namdrik,MH,2024-05-09,5.5994,168.1028,100,81,83.33599999999997,4.26
337,vershino-darasunskiy,RU,2024-05-09,52.35,115.5167,100,57,48.57799999999996,3.9
338,mil'kovo,RU,2024-05-09,55.6078,37.7956,43,59,36.248000000000026,4.6
339,wad medani,SD,2024-05-09,14.4012,33.5199,100,12,83.33599999999997,4.21
340,santa cruz,BO,2024-05-09,-17.8,-63.1667,36,94,64.13000000000005,1.03
341,tillaberi,NE,2024-05-09,14.2117,1.4531,72,37,90.76999999999995,4.12
342,alvorada,BR,2024-05-09,-12.48,-49.1247,22,48,72.31999999999996,1.84
343,rufino,AR,2024-05-09,-34.2683,-62.7126,49,63,44.492,3.7
344,boundiali,CI,2024-05-09,9.5217,-6.4869,31,77,77.41400000000004,2.1
345,karasburg,NA,2024-05-09,-28.0167,18.75,54,45,63.608000000000004,4.95
346,tofol,FM,2024-05-09,5.3248,163.0078,100,84,84.25399999999996,5.66
347,verkh-chebula,RU,2024-05-09,56.0308,87.6218,100,41,61.069999999999965,3.03
348,krasnokamensk,RU,2024-05-09,50.0979,118.0369,81,56,52.17799999999997,6.1
349,parral,MX,2024-05-09,26.9333,-105.6667,81,11,68.95399999999995,5.72
350,lobujya,NP,2024-05-09,27.95,86.8167,88,62,27.10399999999995,2.05
351,faya-largeau,TD,2024-05-09,17.9257,19.1043,62,15,90.17599999999999,4.63
352,nova sintra,CV,2024-05-09,14.8667,-24.7167,8,77,75.14600000000004,9.01
353,aginskoye,RU,2024-05-09,51.1,114.53,100,81,37.49000000000002,7.83
354,dakhla,EH,2024-05-09,23.6848,-15.958,100,87,65.066,7.28
355,bloemfontein,ZA,2024-05-09,-29.1211,26.214,0,76,49.748000000000026,1.03
356,ardakan,IR,2024-05-09,32.31,54.0175,0,48,62.67200000000004,2.36
357,williston,US,2024-05-09,48.147,-103.618,44,59,60.58399999999999,3.09
358,kirensk,RU,2024-05-09,57.7853,108.1119,43,57,41.233999999999995,4.02
359,kirakira,SB,2024-05-09,-10.4544,161.9205,71,73,83.76799999999999,4.83
360,shalqar,KZ,2024-05-09,47.8333,59.6,7,43,51.25999999999998,3.15
361,betio village,KI,2024-05-09,1.358,172.9211,100,75,84.50600000000003,2.18
362,nova vicosa,BR,2024-05-09,-17.8919,-39.3719,0,84,77.71999999999997,2.95
363,mahina,PF,2024-05-09,-17.5065,-149.489,20,70,84.23599999999996,3.09
364,gaiman,AR,2024-05-09,-43.2897,-65.4929,2,61,47.20999999999998,1.22
365,tranovaho,,,,,,,,
366,darwin,AU,2024-05-09,-12.4611,130.8418,20,50,92.15600000000003,7.2
367,alotau,,,,,,,,
368,hotan,CN,2024-05-09,37.0997,79.9269,32,9,85.118,6.78
369,lata,PT,2024-05-09,40.1629,-8.3327,58,70,57.34399999999997,0.03
370,serres,GR,2024-05-09,41.0856,23.5497,100,92,62.63599999999997,1.66
371,bhamo,MM,2024-05-09,24.2667,97.2333,94,46,88.50199999999998,0.95
372,broome,US,2024-05-09,42.2506,-75.833,100,86,54.248000000000026,1.54
373,pariang,,,,,,,,
374,skagen,DK,2024-05-09,57.7209,10.5839,91,94,50.05399999999995,8.12
375,chapadinha,BR,2024-05-09,-3.7417,-43.3603,87,81,77.41400000000004,0.75
376,tadine,NC,2024-05-09,-21.55,167.8833,65,64,74.11999999999996,7.4
377,dean funes,AR,2024-05-09,-30.4204,-64.3498,100,51,45.464000000000034,2.12
378,yetkul',RU,2024-05-09,54.8221,61.588,90,68,35.725999999999985,7.14
379,kolonia town,FM,2024-05-09,6.964,158.206,100,74,88.17799999999997,4.12
380,nar'yan-mar,RU,2024-05-09,67.6713,53.087,100,95,29.372000000000035,11.62
381,siwa oasis,EG,2024-05-09,29.2041,25.5195,100,43,73.20199999999997,7.27
382,mount pearl,CA,2024-05-09,47.5166,-52.7813,100,92,37.72400000000001,2.57
383,nuku'alofa,TO,2024-05-09,-21.1333,-175.2,20,61,79.41199999999995,2.57
384,tsiombe,MG,2024-05-09,-25.3,45.4833,0,83,66.55999999999997,2.02
385,belokurikha,RU,2024-05-09,51.9959,84.9896,93,37,74.75,2.44
386,antonio enes,MZ,2024-05-09,-16.2325,39.9086,6,85,73.292,2.49
387,hayma',,,,,,,,
388,kotabumi,ID,2024-05-09,-4.8333,104.9,35,72,86.25199999999998,2.01
389,port isabel,US,2024-05-09,26.0734,-97.2086,0,86,84.542,5.66
390,bage,BR,2024-05-09,-31.3314,-54.1069,100,71,51.83599999999997,3.12
391,keflavik,IS,2024-05-09,64.0049,-22.5624,100,76,45.30199999999998,5.14
392,olsztynek,PL,2024-05-09,53.5837,20.2847,100,83,40.90999999999998,2.53
393,hasaki,JP,2024-05-09,35.7333,140.8333,0,35,73.56199999999995,6.51
394,bartica,GY,2024-05-09,6.4,-58.6167,100,95,79.39399999999998,1
395,inhambane,MZ,2024-05-09,-23.865,35.3833,3,87,69.24199999999999,0.52
396,howrah,IN,2024-05-09,22.5892,88.3103,40,88,77.26999999999995,4.12
397,maralal,KE,2024-05-09,1.0968,36.698,85,91,57.45199999999998,1.43
398,flying fish cove,CX,2024-05-09,-10.4217,105.6791,100,83,80.54600000000005,6.69
399,alma,CA,2024-05-09,48.5501,-71.6491,24,77,46.79600000000005,1.28
400,moreira sales,BR,2024-05-09,-24.0622,-53.0069,74,55,75.77599999999998,3.05
401,santa barbara,US,2024-05-09,34.7333,-120.0343,0,72,59.82799999999996,3.09
402,santo angelo,BR,2024-05-09,-28.2992,-54.2631,95,86,60.83599999999997,2.88
403,cockburn town,TC,2024-05-09,21.4612,-71.1419,0,80,78.44000000000003,6.22
404,banda aceh,ID,2024-05-09,5.5577,95.3222,74,69,85.80199999999998,0.63
405,beledweyne,SO,2024-05-09,4.7358,45.2036,100,74,80.924,2.91
406,tolanaro,MG,2024-05-09,-25.0319,46.9987,20,73,75.542,8.23
407,wainwright,CA,2024-05-09,52.839,-110.8572,48,60,55.13000000000004,2.84
408,revda,RU,2024-05-09,56.801,59.9303,63,53,34.66400000000003,5.61
409,suva,FJ,2024-05-09,-18.1416,178.4415,40,57,80.34800000000003,3.6
410,machico,PT,2024-05-09,32.7,-16.7667,40,79,68.9,2.06
411,breyten,ZA,2024-05-09,-26.3018,29.987,0,46,48.57799999999996,1.13
412,betioky,MG,2024-05-09,-23.7167,44.3833,0,81,64.90399999999995,2.79
413,kataragama,,,,,,,,
414,taroa,MH,2024-05-09,8.7058,171.2275,99,83,82.184,8.21
415,warwick,US,2024-05-09,41.7001,-71.4162,100,75,53.54600000000005,5.66
416,ujae,MH,2024-05-09,8.9322,165.7642,100,80,82.30999999999997,8.74
417,coahuayana de hidalgo,MX,2024-05-09,18.7,-103.6583,28,87,71.49199999999999,0.51
418,tosontsengel,MN,2024-05-09,48.7567,98.2839,45,20,48.84800000000003,6.07
419,batticaloa,LK,2024-05-09,7.7102,81.6924,91,73,84.36199999999997,1.52
420,keetmanshoop,NA,2024-05-09,-26.5833,18.1333,43,46,72.78800000000004,5.66
421,karema,TZ,2024-05-09,-6.8205,30.4389,76,85,69.70999999999998,2.78
422,novyy urgal,RU,2024-05-09,51.0736,132.5642,99,24,56.04800000000003,2.16
423,tual,ID,2024-05-09,-5.6667,132.75,42,80,82.88599999999997,5.78
424,mersa matruh,EG,2024-05-09,31.3525,27.2453,0,82,66.66799999999998,2.06
425,ibotirama,BR,2024-05-09,-12.1853,-43.2206,5,68,71.27599999999998,0.67
426,kharp,RU,2024-05-09,66.8014,65.8081,100,95,25.988000000000046,10.39
427,severo-yeniseyskiy,RU,2024-05-09,60.3725,93.0408,100,89,36.842,1.79
428,puerto san jose,GT,2024-05-09,13.9256,-90.8244,41,69,85.38800000000005,3.15
429,kapa'a,US,2024-05-09,22.0752,-159.319,0,80,79.39399999999998,4.12
430,la'ie,US,2024-05-09,21.6477,-157.9253,68,76,77.37799999999996,2.68
431,oranjemund,NA,2024-05-09,-28.55,16.4333,1,91,53.725999999999985,1.65
432,quibala,AO,2024-05-09,-10.7337,14.98,100,77,66.86600000000001,1.13
433,poronaysk,RU,2024-05-09,49.2167,143.1167,93,60,50.75600000000003,2.67
434,cody,US,2024-05-09,44.5263,-109.0565,100,78,49.45999999999998,6.69
435,mugia,ES,2024-05-09,43.1041,-9.2179,65,76,56.174000000000014,3.05
436,bikenibeu village,KI,2024-05-09,1.3673,173.1241,40,84,84.434,2.57
437,sampang,ID,2024-05-09,-7.1872,113.2394,98,70,85.04600000000005,4.49
438,kyzyl,RU,2024-05-09,51.7,94.45,66,37,51.29600000000005,1.34
439,kapadvanj,IN,2024-05-09,23.0167,73.0667,0,49,84.25399999999996,2.72
440,brookings,US,2024-05-09,44.3114,-96.7984,0,64,61.069999999999965,0
441,isla vista,US,2024-05-09,34.4133,-119.861,0,79,66.092,4.12
442,pahrump,US,2024-05-09,36.2083,-115.9839,51,19,73.72400000000002,4.47
443,forest,US,2024-05-09,37.3638,-79.2897,0,87,70.12400000000002,0
444,lautoka,FJ,2024-05-09,-17.6167,177.4667,40,47,82.52599999999998,6.69
445,bel ombre,SC,2024-05-09,-4.6167,55.4167,20,89,80.708,1.03
446,imbituba,BR,2024-05-09,-28.24,-48.6703,100,91,62.167999999999985,1.52
447,kupang,ID,2024-05-09,-10.1667,123.5833,2,55,88.25,5.58
448,dawson creek,CA,2024-05-09,55.7666,-120.2362,0,24,71.50999999999999,7.2
449,bronnitsy,RU,2024-05-09,55.4194,38.2708,0,60,36.608000000000004,3
450,nadym,RU,2024-05-09,65.5333,72.5167,100,100,35.24000000000002,11.06
451,tazovsky,RU,2024-05-09,67.4667,78.7,99,87,30.23599999999997,8.97
452,durango,MX,2024-05-09,24.8333,-104.8333,59,17,69.51199999999996,4.42
453,mendeleyevsk,RU,2024-05-09,55.9082,52.2905,25,62,31.51400000000003,7.86
454,praia,CV,2024-05-09,14.9215,-23.5087,0,41,77.80999999999997,4.63
455,la passe,FR,2024-05-09,45.5549,-0.8967,22,91,56.67799999999997,4.02
456,mbanza kongo,AO,2024-05-09,-6.267,14.2401,99,98,71.31199999999995,0.64
457,port hedland,AU,2024-05-09,-20.3167,118.5667,57,21,86.32400000000001,8.75
458,rehoboth,NA,2024-05-09,-23.3167,17.0833,14,43,66.27200000000005,1.38
459,novodvinsk,RU,2024-05-09,64.4165,40.8122,99,59,28.417999999999985,4.49
460,uliastay,MN,2024-05-09,47.7417,96.8444,16,22,50.522000000000034,2.42
461,balkanabat,TM,2024-05-09,39.5108,54.3671,0,43,69.31400000000004,3.28
462,bayji,IQ,2024-05-09,34.9311,43.487,1,37,73.04000000000002,1.53
463,nouadhibou,MR,2024-05-09,20.931,-17.0347,100,85,65.42599999999999,9.1
464,langarud,IR,2024-05-09,37.197,50.1535,79,76,62.07799999999996,1.29
465,puerto lempira,HN,2024-05-09,15.2667,-83.7667,99,79,82.75999999999999,5.79
466,kosh-agach,RU,2024-05-09,50,88.6667,15,39,51.58399999999999,1.79
467,tiznit,MA,2024-05-09,29.5833,-9.5,100,63,67.226,0.96
468,gaspe,CA,2024-05-09,48.8334,-64.4819,100,70,41.48599999999997,3.6
469,cabo san lucas,MX,2024-05-09,22.8909,-109.9124,0,47,81.17599999999999,2.06
470,choix,MX,2024-05-09,26.7092,-108.3219,63,18,79.62799999999996,1.47
471,bogale,MM,2024-05-09,16.2833,95.4,1,42,94.98200000000003,1.65
472,hami,CN,2024-05-09,42.8,93.45,0,24,74.93000000000004,4.01
473,mejit,MH,2024-05-09,10.2753,170.8646,98,82,81.5,8.57
474,tataouine,TN,2024-05-09,32.9297,10.4518,4,79,59.306000000000026,3.9
475,mancio lima,BR,2024-05-09,-7.6142,-72.8958,100,100,77.342,0
476,wuxue,CN,2024-05-09,29.8506,115.5525,99,62,79.32200000000003,4.46
477,berezovo,RU,2024-05-09,63.9381,65.0419,65,84,32.0,5.61
478,langepas,RU,2024-05-09,61.2544,75.2124,100,89,40.60399999999995,8
479,sete,FR,2024-05-09,43.4018,3.6966,0,70,53.725999999999985,1.91
480,sisimiut,GL,2024-05-09,66.9395,-53.6735,10,80,22.424000000000014,3.44
481,sandnessjoen,NO,2024-05-09,66.0217,12.6316,96,67,38.19199999999999,8.48
482,kassiri,SL,2024-05-09,8.9372,-13.1244,100,89,77.558,2.3
483,katsuura,JP,2024-05-09,35.1333,140.3,0,47,64.65199999999999,5.51
484,harper,LR,2024-05-09,4.375,-7.7169,84,84,81.42799999999997,2.64
485,porangatu,BR,2024-05-09,-13.4408,-49.1486,5,58,68.792,0.74
486,praia da vitoria,PT,2024-05-09,38.7333,-27.0667,20,88,62.024000000000015,1.45
487,mount pleasant,US,2024-05-09,32.7941,-79.8626,0,93,72.26600000000002,4.63
488,kudahuvadhoo,MV,2024-05-09,2.6708,72.8944,59,76,85.15399999999995,5.02
489,susuman,RU,2024-05-09,62.7833,148.1667,99,68,37.25600000000003,1.79
490,tamiahua,MX,2024-05-09,21.2667,-97.45,100,50,87.49399999999997,3.92
491,baiao,BR,2024-05-09,-2.7906,-49.6717,88,100,74.984,1.04
492,datca,TR,2024-05-09,36.7378,27.6842,100,57,64.92200000000004,0.2
493,lerwick,GB,2024-05-09,60.1545,-1.1494,100,97,46.66999999999996,6.52
494,kerikeri,NZ,2024-05-09,-35.2268,173.9474,1,50,66.18200000000002,5.81
495,pohang,KR,2024-05-09,36.0322,129.365,20,35,76.45999999999998,4.88
496,saint-felicien,CA,2024-05-09,48.6501,-72.4491,0,53,45.55399999999995,3.6
497,xinyuan,CN,2024-05-09,37.3,99,100,73,39.34399999999997,1.27
498,sao vicente,BR,2024-05-09,-23.9631,-46.3919,71,26,79.25,1.81
499,semey,KZ,2024-05-09,50.4111,80.2275,0,37,70.28599999999997,2
500,esfarayen,IR,2024-05-09,37.0765,57.5101,69,59,48.127999999999965,2.5
501,neryungri,RU,2024-05-09,56.6709,124.6491,97,79,33.458000000000006,1.38
502,smithers,CA,2024-05-09,54.7804,-127.1743,20,30,72.19399999999997,4.12
503,el granada,US,2024-05-09,37.5027,-122.4694,0,78,76.71199999999996,7.2
504,viana,BR,2024-05-09,-20.3903,-40.4961,31,95,77.03599999999997,1.48
505,suizhou,CN,2024-05-09,31.7111,113.3631,12,59,77.54000000000002,7.7
506,alibag,IN,2024-05-09,18.6411,72.8792,1,69,84.542,1.81
507,ilhabela,BR,2024-05-09,-23.7781,-45.3581,51,93,75.10999999999999,2.21
508,glace bay,CA,2024-05-09,46.1969,-59.957,100,97,39.16400000000003,4.63
509,buulobarde,SO,2024-05-09,3.8538,45.5674,95,81,78.80000000000001,4.6
510,baotou,CN,2024-05-09,40.6522,109.8222,100,39,67.65800000000002,10.84
511,chissamba,AO,2024-05-09,-12.1667,17.3333,15,62,57.866000000000014,1.06
512,khandyga,RU,2024-05-09,62.6667,135.6,100,69,39.056000000000026,1.9
513,chesma,RU,2024-05-09,53.8111,60.6533,37,48,37.66999999999996,7.96
514,crato,BR,2024-05-09,-7.2342,-39.4094,75,100,75.18200000000002,4.63
515,auki,SB,2024-05-09,-8.7676,160.7034,100,88,81.24800000000002,1.42
516,manokwari,ID,2024-05-09,-0.8667,134.0833,99,80,83.066,4.11
517,tarauaca,BR,2024-05-09,-8.1614,-70.7656,20,93,75.36199999999997,0.77
518,bannockburn,GB,2024-05-09,56.0898,-3.9109,100,89,57.72200000000004,1.51
519,nantucket,US,2024-05-09,41.2835,-70.0995,0,93,48.57799999999996,3.6
520,el salto,MX,2024-05-09,20.3333,-104.5,0,31,71.16799999999998,1.56
521,sangin,AF,2024-05-09,32.0728,64.8359,18,39,77.64800000000002,6.83
522,novoishimskiy,KZ,2024-05-09,53.1981,66.7694,3,55,49.24399999999997,5.15
523,alice springs,AU,2024-05-09,-23.7,133.8833,75,60,67.81999999999996,5.66
524,les sables-d'olonne,FR,2024-05-09,46.6667,-1.8333,63,91,54.661999999999956,4.88
525,kita,ML,2024-05-09,13.0349,-9.4895,92,43,89.36600000000001,1.48
526,gering,US,2024-05-09,41.8258,-103.6605,100,81,51.38599999999997,3.6
527,pesaro,IT,2024-05-09,43.9036,12.8903,50,84,60.242,4.32
528,kralendijk,BQ,2024-05-09,12.15,-68.2667,40,83,82.65199999999999,5.66
529,kedougou,SN,2024-05-09,12.5579,-12.1743,97,57,86.45,2.86
530,prince rupert,CA,2024-05-09,54.3161,-130.3201,100,85,52.15999999999998,4.12
531,qapqal,,,,,,,,
532,maturin,VE,2024-05-09,9.75,-63.1767,100,73,79.51999999999995,2.42
533,renk,,,,,,,,
534,namtsy,RU,2024-05-09,62.7161,129.6658,100,45,37.88599999999997,3.92
535,morant bay,JM,2024-05-09,17.8815,-76.4093,89,87,85.892,2.85
536,pangody,RU,2024-05-09,65.85,74.4859,100,98,34.30399999999995,11.29
537,sodankyla,FI,2024-05-09,67.4167,26.6,99,98,28.75999999999998,1.76
538,zalingei,SD,2024-05-09,12.9096,23.4741,87,15,78.18800000000005,2.81
539,ash shafa,,,,,,,,
540,bonthe,SL,2024-05-09,7.5264,-12.505,100,85,81.5,2.61
541,namibe,AO,2024-05-09,-15.1961,12.1522,1,71,73.00399999999996,3.49
542,sao joao da barra,BR,2024-05-09,-21.6403,-41.0511,29,89,76.53200000000001,3.84
543,fedorovka,KZ,2024-05-09,53.6314,62.7078,24,55,39.2,9.44
544,sabzevar,IR,2024-05-09,36.2126,57.6819,50,58,57.70399999999995,3.91
545,brejo da madre de deus,BR,2024-05-09,-8.1458,-36.3711,7,92,64.184,2.33
546,freetown,SL,2024-05-09,8.484,-13.2299,75,94,76.98200000000003,1.54
547,okha,RU,2024-05-09,53.5739,142.9478,100,93,38.516000000000005,2.68
548,keyser,US,2024-05-09,39.4409,-78.9739,94,96,62.311999999999955,1.05
549,ostersund,SE,2024-05-09,63.1792,14.6357,18,86,34.88000000000004,6.17
550,patnanungan,PH,2024-05-09,14.7833,122.1833,23,77,83.53399999999999,4.21
551,namsos,NO,2024-05-09,64.4662,11.4957,100,70,41.32400000000001,2.57
552,palpala,AR,2024-05-09,-24.2565,-65.2116,75,93,49.49600000000005,0.51
553,nyazepetrovsk,RU,2024-05-09,56.0531,59.6028,65,55,35.041999999999994,5.35
554,samalut,EG,2024-05-09,28.3121,30.7101,0,11,78.11600000000001,3.86
555,taro,ID,2024-05-09,-8.3862,115.28,46,54,77.26999999999995,0.96
556,ulysses,US,2024-05-09,37.5814,-101.3552,0,58,61.358000000000004,4.63
557,holualoa,US,2024-05-09,19.6228,-155.9522,40,84,78.90800000000002,5.66
558,tanrake village,,,,,,,,
559,fomboni,KM,2024-05-09,-12.28,43.7425,0,68,82.868,8.02
560,ar rahad,SD,2024-05-09,12.7167,30.65,17,9,75.18200000000002,2.13
561,egilsstadir,IS,2024-05-09,65.2653,-14.3948,0,87,35.780000000000044,1.03
562,mount isa,AU,2024-05-09,-20.7333,139.5,40,61,78.83599999999997,4.12
563,kisangani,CD,2024-05-09,0.5167,25.2,100,99,71.33000000000004,0.56
564,fort st. john,CA,2024-05-09,56.2499,-120.8529,40,26,69.96199999999996,6.69
565,dryden,CA,2024-05-09,49.7833,-92.7503,20,26,57.75800000000001,2.06
566,puerto aysen,CL,2024-05-09,-45.4,-72.7,99,99,37.508,0.59
567,qal'at bishah,,,,,,,,
568,xiulin,CN,2024-05-09,29.7167,112.4,100,69,74.51600000000002,7.22
569,chistyye bory,RU,2024-05-09,58.3647,41.6278,100,67,32.97200000000004,6.3
570,balezino,RU,2024-05-09,57.9796,53.0106,100,85,30.83000000000004,8.26
571,paulista florida,BR,2024-05-09,-21.6,-51.2,14,63,70.15999999999998,2.39
572,edmond,US,2024-05-09,35.6528,-97.4781,0,58,70.358,1.34
573,cumaribo,,,,,,,,
574,kikwit,CD,2024-05-09,-5.041,18.8162,100,87,73.34600000000006,0.44
575,ankang,CN,2024-05-09,32.68,109.0172,51,68,74.984,1.14
576,lakatoro,VU,2024-05-09,-16.0999,167.4164,79,59,78.38599999999997,6.75
577,mariental,NA,2024-05-09,-24.6333,17.9667,75,41,73.43599999999998,2.5
578,shenjiamen,CN,2024-05-09,29.9576,122.298,57,79,65.30000000000001,7.78
579,kitimat,CA,2024-05-09,54.0524,-128.6534,54,52,72.24800000000002,2.68
580,poltavka,RU,2024-05-09,54.3663,71.7632,15,65,50.39600000000005,5.86
581,emerald,AU,2024-05-09,-23.5333,148.1667,100,62,74.60600000000002,7.06
582,paragominas,BR,2024-05-09,-2.9667,-47.4833,90,98,73.72400000000002,1.48
583,boda,CF,2024-05-09,4.3189,17.4695,100,81,76.06400000000004,1.37
584,bathsheba,BB,2024-05-09,13.2167,-59.5167,20,78,83.28200000000001,7.72
585,kismayo,SO,2024-05-09,-0.3582,42.5454,41,87,78.674,4.29
586,pamandzi,YT,2024-05-09,-12.7967,45.2794,40,74,80.65399999999995,6.69
587,semenivka,UA,2024-05-09,52.1783,32.5818,100,68,40.29800000000002,4.65
588,knyazhichi,UA,2024-05-09,50.4627,30.7837,32,70,47.15600000000003,2.86
589,fort bragg,US,2024-05-09,35.139,-79.006,0,79,73.50800000000001,5.14
590,childress,US,2024-05-09,34.4264,-100.204,0,33,72.12200000000004,4.63
591,iquique,CL,2024-05-09,-20.2208,-70.1431,82,79,62.906000000000034,1.96
592,san antonio del estrecho,,,,,,,,
593,boyolangu,ID,2024-05-09,-8.1181,111.8935,63,73,84.434,2.47
594,pyt-yakh,RU,2024-05-09,60.7499,72.8582,93,74,42.92599999999999,6.09
595,peniche,PT,2024-05-09,39.3558,-9.3811,100,95,62.564000000000036,2.3
596,albunol,ES,2024-05-09,36.792,-3.205,92,66,57.79399999999997,0.88
597,santa elena de uairen,VE,2024-05-09,4.6167,-61.1333,100,91,70.592,1.36
598,cumanayagua,CU,2024-05-09,22.1494,-80.2022,33,77,80.618,1.59
599,tadjourah,DJ,2024-05-09,12,42.5,10,57,82.94000000000003,2.74
600,guerrero negro,MX,2024-05-09,27.9769,-114.0611,41,79,61.12400000000001,7.12
